long,lat,id,nombre,razon_social,cuit,tipo_de_boca,domicilio,calle_nombre,calle_altura,calle_cruce,barrio,comuna
-58.49181771449121,-34.582445816993605,1074,ASPRO,GNC LOS AMIGOS S.A.,30-64711854-9,GNC,"AV. DE LOS CONSTITUYENTES 4480 ESQ. VALLEJOS, CIUDAD AUTóNOMA DE BUENOS AIRES",DE LOS CONSTITUYENTES AV.,,MENDOZA,Villa Pueyrredon,Comuna 12
-58.4139586038227,-34.606223741128304,1076,ASPRO,GAS ING SOCIEDAD ANONIMA,30-64581284-7,GNC,"SARMIENTO 3412 ESQ., CIUDAD AUTóNOMA DE BUENOS AIRES",GALLO,,SARMIENTO,Almagro,Comuna 5
-58.371515709209795,-34.591480612187,84,DAPSA,DESTILERIA ARGENTINA DE PETROLEO S.A.,30-55025533-9,LIQUIDOS,"AVDA. E. MADERO Y SAN MARTIN, RETIRO - C.A.B.A.","MARTINEZ ZUVIRIA, GUSTAVO,",,SAN MARTIN,Retiro,Comuna 1
-58.4869134027637,-34.5678335083907,114,ESSO,SERVICENTRO CONGRESO - 158698,30-50691900-9,DUAL,"AV CONGRESO 4801, CAPITAL FED ZONA 5",CONGRESO AV.,4801.0,GALVAN,Villa Urquiza,Comuna 12
-58.4660714844294,-34.5622034826728,115,ESSO,SERVICENTRO DEL TEJAR - 158625,30-50691900-9,LIQUIDOS,"MONROE 3078, CAPITAL FED ZONA 5","BALBIN, RICARDO, DR. AV.",3078.0,MONROE,Belgrano,Comuna 13
-58.4053472830924,-34.6121409182196,117,ESSO,CORS ESSO PETROLERA ARGENTINA SRL,30-50691900-9,DUAL,"AV.JUJUY 164 Y ALSINA, CAPITAL FED ZONA 4","ALSINA, ADOLFO",,JUJUY AV.,Balvanera,Comuna 3
-58.490212971474286,-34.627491851768,118,ESSO,ANTONIO RODEIRO CALVO,20-93430342-4,LIQUIDOS,"SEGUROLA 809 ESQ. GAONA, CAPITAL FED ZONA 4",GAONA AV.,,SEGUROLA AV.,Floresta,Comuna 10
-58.4606196283127,-34.6142206946945,119,ESSO,JUAN CARLOS BARGIELA,20-13076767-3,LIQUIDOS,"AV. GAONA 2399 Y TRELLES, CAPITAL FEDERAL",GAONA AV.,,"TRELLES, MANUEL R.",Villa Gral. Mitre,Comuna 11
-58.443726601238396,-34.5703097768677,120,ESSO,SERVICENTRO CABILDO - 158594,30-50691900-9,LIQUIDOS,"CABILDO 695 ESQ. OLLEROS, CAPITAL FED ZONA 4",CABILDO AV.,,OLLEROS,Palermo,Comuna 14
-58.3761660822694,-34.6162991556142,122,ESSO,URANIA DE ROSARIO ELENA SICA,27-03419318-0,LIQUIDOS,"CHILE 702 ESQ. CHACABUCO, CAPITAL FED ZONA 1",CHACABUCO,,CHILE,San Telmo,Comuna 1
-58.44403879016,-34.5948303339949,123,ESSO,J. B. JUSTO S.A.,30-66172354-4,LIQUIDOS,"CORRIENTES 5793, CAPITAL FED ZONA 1",CORRIENTES AV.,5793.0,"JUSTO, JUAN B. AV.",Villa Crespo,Comuna 15
-58.450830158079796,-34.6062095600886,124,ESSO,SERVICENTRO LUIS VIALE - 158680,30-50691900-9,LIQUIDOS,"AV. SAN MARTIN Y LUIS VIALE, CAPITAL FED ZONA 1",SAN MARTIN AV.,,"VIALE, LUIS",Villa Crespo,Comuna 15
-58.42806431115089,-34.6219380305265,125,ESSO,SERVICENTRO ALBERDI - 158709,30-50691900-9,LIQUIDOS,"AV. LA PLATA 575, CAPITAL FED ZONA 1","ALBERDI, JUAN BAUTISTA AV.",575.0,INDEPENDENCIA AV.,Caballito,Comuna 6
-58.4966037821581,-34.5638353696806,126,ESSO,SERVICENTRO PARQUE SARMIENTO - 158654,30-50691900-9,DUAL,"AV. TRIUNVIRATO 5878 Y CRISOLOGO LARRALDE, CAPITAL FED ZONA 5","LARRALDE, CRISOLOGO AV.",,TRIUNVIRATO AV.,Villa Urquiza,Comuna 12
-58.4628694420381,-34.575092791875896,127,ESSO,JUAN CARLOS BARGIELA,20-13076767-3,LIQUIDOS,"AVDA. LOS INCAS 3550, CAPITAL FED ZONA 5",DELGADO,3550.0,DE LOS INCAS AV.,Colegiales,Comuna 13
-58.479310550670704,-34.6328810284541,128,ESSO,SERVICENTRO FLORESTA - 158629,30-50691900-9,LIQUIDOS,"AV. RIVADAVIA Y JOAQUIN V. GONZ, CAPITAL FED ZONA 7",ENSENADA,,"GONZALEZ, JOAQUIN V.",Floresta,Comuna 10
-58.4115175300141,-34.610290845836204,129,ESSO,SERVICENTRO ANCHORENA - 158623,30-50691900-9,DUAL,"AV. RIVADAVIA 3199 ESQ. ANCHORENA, CAPITAL FED ZONA 2","ANCHORENA, TOMAS MANUEL DE, DR.",,RIVADAVIA AV.,Balvanera,Comuna 3
-58.528822736973,-34.6465310955599,130,ESSO,SERVICENTRO GRAL PAZ CAP. - 158715,30-50691900-9,DUAL,"AV. GRAL PAZ KM. 15, CAPITAL FED ZONA 7",BOQUERON,,HUMAITA,Liniers,Comuna 9
-58.4733564456485,-34.6531395202654,131,ESSO,NUEVOS EMPRENDIMIENTOS SRL,30-68498803-0,DUAL,"Av EVA PERON 4350, CAPITAL FEDERAL","PERON, EVA AV.",4350.0,MEDINA,Parque Avellaneda,Comuna 9
-58.497167042136,-34.5966421140717,132,ESSO,ANTONIO RODEIRO CALVO,20-93430342-4,LIQUIDOS,"AV. SAN MARTIN 5705 ESQ. HELGUERA, CAPITAL FED ZONA 5","BEIRO, FRANCISCO AV.",,SAN MARTIN AV.,Agronomia,Comuna 15
-58.5236485846529,-34.6556213286894,133,ESSO,EMICAS S.R.L.,30-67605466-5,LIQUIDOS,"AV. EMILIO CASTRO 7541, CAPITAL FED ZONA 1","CASTRO, EMILIO AV.",7541.0,FRAGATA TRINIDAD,Liniers,Comuna 9
-58.516091071868,-34.628799753898605,134,ESSO,VERSALLES MULTISERVICE S.R.L.,33-66137485-9,LIQUIDOS,"IRIGOYEN 1260, CAPITAL FED ZONA 5",ALVAREZ JONTE AV.,1260.0,IRIGOYEN,Versalles,Comuna 10
-58.527726468046296,-34.615767399168895,135,ESSO,SERVICENTRO AMANECER - 158690,30-50691900-9,LIQUIDOS,"AV F BEIRO 5501 Y MOLIERE, CAPITAL FED ZONA 1","BEIRO, FRANCISCO AV.",,MOLIERE,Villa Real,Comuna 10
-58.405857459436206,-34.6337714093623,136,ESSO,TECNOLOG™A DATRI,30-71049076-3,LIQUIDOS,"AV. BRASIL 2984, CAPITAL FEDERAL",BRASIL,2984.0,LA RIOJA,Parque Patricios,Comuna 4
-58.4751773972025,-34.6357681146964,137,ESSO,BELESAR S.R.L.,30-52221477-5,LIQUIDOS,"JUAN B. ALBERDI 3480, CAPITAL FED ZONA 4","ALBERDI, JUAN BAUTISTA AV.",3480.0,DOLORES,Floresta,Comuna 10
-58.5168931910311,-34.6405990191639,138,ESSO,UNICOMB S.R.L,30-71079313-8,LIQUIDOS,"FALCON RAMON L CNEL 6398, CAPITAL FED ZONA 5","FALCON, RAMON L.,CNEL.",6398.0,OLIDEN,Liniers,Comuna 9
-58.4506592803436,-34.62423097198589,139,ESSO,ROBERTO OTERO Y JAVIER LOPEZ,30-70942943-0,LIQUIDOS,"RIVADAVIA 6045 ESQ. BIEDMA, CAPITAL FED ZONA 3","BIEDMA, JOSE JUAN",,RIVADAVIA AV.,Caballito,Comuna 6
-58.38457651448171,-34.627151362253606,140,ESSO,SERVICENTRO GARAY - 158621,30-50691900-9,DUAL,"AV. J. DE GARAY 1302, CAPITAL FED ZONA 1","GARAY, JUAN DE AV.",1302.0,SANTIAGO DEL ESTERO,Constitucion,Comuna 1
-58.5015014809511,-34.6321409021659,141,ESSO,SERVICENTRO VILLA LURO - 158678,30-50691900-9,LIQUIDOS,"J.B. JUSTO 8005 Y LOPE DE  VEGA, CAPITAL FED ZONA 7","ESCALADA DE SAN MARTIN, R.",,LOPE DE VEGA AV.,Villa Luro,Comuna 10
-58.4230383497229,-34.6568518523374,142,ESSO,LEJEM S.A.,30-62753962-9,DUAL,"INTENDENTE RABANAL  1733, CAPITAL FED ZONA 1",CRESPO,1733.0,"RABANAL, FRANCISCO, INTENDENTE AV.",Nueva Pompeya,Comuna 4
-58.441013604665,-34.5867411644758,143,ESSO,SERVICENTRO BOMPLAND - 158809,30-50691900-9,DUAL,"CORDOBA 5653/99 ESQUINA BOMPLAND, CAPITAL FED ZONA 4",BONPLAND,,CORDOBA AV.,Palermo,Comuna 14
-58.428858531413795,-34.6479616207125,144,ESSO,SERVICENTRO CENTENERA - 158821,30-50691900-9,LIQUIDOS,"CRUZ 1501, CAPITAL FED ZONA 2",JUANA DE ARCO,1501.0,"FERNANDEZ DE LA CRUZ, F., GRAL. AV.",Nueva Pompeya,Comuna 4
-58.4574410126986,-34.5471071814684,145,ESSO,SERVICENTRO LIBERTADOR - 158631,30-50691900-9,LIQUIDOS,"AV. LIBERTADOR 7112 Y MANUEL A. PED, CAPITAL FED ZONA 5",DEL LIBERTADOR AV.,,"PEDRAZA, MANUELA",Nu\u00f1ez,Comuna 13
-58.4973009531965,-34.5835148143343,146,ESSO,SERVICENTRO AMERICA - 158711,30-50691900-9,LIQUIDOS,"AV. GRAL MOSCONI 2500, CAPITAL FED ZONA 5","ARTIGAS, JOSE GERVASIO, GRAL.",2500.0,MOSCONI GENERAL AV.,Villa Pueyrredon,Comuna 12
-58.4065560947587,-34.5786661491345,147,ESSO,SERVICENTRO ALVEAR - 158724,30-50691900-9,LIQUIDOS,"AV. LIBERTADOR 2589, CAPITAL FED ZONA 3",DEL LIBERTADOR AV.,2589.0,"SALGUERO, JERONIMO",Palermo,Comuna 14
-58.438730810981,-34.6289111373439,148,ESSO,ROBERTO OTERO Y JAVIER LOPEZ,30-70942943-0,LIQUIDOS,"AV. DIRECTORIO 802, CAPITAL FED ZONA 3",DIRECTORIO AV.,802.0,THOMPSON,Parque Chacabuco,Comuna 7
-58.4528994248401,-34.63119111980961,149,ESSO,KUKE S.R.L.,30-56845950-0,LIQUIDOS,"DIRECTORIO 1796     ESQ. PUMACAHUA, CAPITAL FED ZONA 3",DIRECTORIO AV.,,PUMACAHUA,Parque Chacabuco,Comuna 7
-58.448929221554394,-34.626201025435,150,ESSO,ALMIRO S.R.L.,30-59721260-3,LIQUIDOS,"AV. JUAN B. ALBERDI Y MIRO, CAPITAL FED ZONA 5","ALBERDI, JUAN BAUTISTA AV.",,MIRO,Caballito,Comuna 6
-58.512707088871096,-34.6508742744037,151,ESSO,SERVICENTRO EMILIO CASTRO - 195636,30-50691900-9,DUAL,"AVDA. EMILIO CASTRO Y CAFAYATE, CAPITAL FED ZONA 5",CAFAYATE,,"CASTRO, EMILIO AV.",Mataderos,Comuna 9
-58.445889170267705,-34.636901284580496,152,ESSO,INV EST S.C.A.,30-54103328-5,LIQUIDOS,"ASAMBLEA Y CURAPALIGUE, CAPITAL FED ZONA 3",ASAMBLEA AV.,,CURAPALIGUE AV.,Parque Chacabuco,Comuna 7
-58.4125177888074,-34.6405315311128,153,ESSO,ESTADIAS Y SERVICIOS S.A.,30-64570013-5,LIQUIDOS,"AV. ALMAFUERTE 187, CAPITAL FED ZONA 2","TABORDA, DIOGENES",187.0,USPALLATA,Nueva Pompeya,Comuna 4
-58.3986938156434,-34.5859823542663,154,ESSO,SERVICENTRO LAS HERAS - 158752,30-50691900-9,LIQUIDOS,"LAS HERAS 2499, CAPITAL FED ZONA 3",GALILEO,2499.0,LAS HERAS GENERAL AV.,Recoleta,Comuna 2
-58.46279091695029,-34.6416103090114,85,OIL,SANLAF S.R.L.,30-70897500-8,LIQUIDOS,"SAN PEDRITO 921, CAPITAL FEDERAL","FERNANDEZ MORENO, BALDOMERO",921.0,SAN PEDRITO,Flores,Comuna 7
-58.5034617655773,-34.660081530334395,86,OIL,TALLARICO MIGUEL R Y SQUILLACE FLAVIO G,30-70817609-1,LIQUIDOS,"AVDA. L. DE LA TORRE 2179 Y AVDA. DIRECTORIO, MATADEROS",DIRECTORIO AV.,,"DE LA TORRE, LISANDRO AV.",Mataderos,Comuna 9
-58.41721576386779,-34.6093977975803,87,OIL,PETRUGAS S.A.,30-64496740-5,DUAL,"B. MITRE 3595 Y MARIO BRAVO, ALMAGRO","BRAVO, MARIO",,"MITRE, BARTOLOME",Almagro,Comuna 5
-58.410407404292,-34.5992605997141,88,OIL,ESTACION DE SERVICIO SAN LUIS S.R.L.,30-54096008-5,DUAL,"SAN LUIS 3187 Y AGUERO, BALVANERA",AGUERO,,SAN LUIS,Balvanera,Comuna 3
-58.4512190948621,-34.595120305373804,89,OIL,DORREGO 443 S.R.L.,30-70056219-7,LIQUIDOS,"DORREGO 443 Y MUÑECAS, CHACARITA",MU\u00d1ECAS,,"SUSINI, ANTONIO, CNEL.",Villa Crespo,Comuna 15
-58.4216122589921,-34.6525947620732,90,OIL,SEFER S.A.,30-66019871-3,LIQUIDOS,"CENTENERA 3182, CAPITAL FEDERAL",BARCO CENTENERA DEL,3182.0,SANTA CATALINA,Nueva Pompeya,Comuna 4
-58.46665011162721,-34.646041391191694,91,OIL,ANTONIO TOMAS RAMON,23-93486129-9,DUAL,"AVDA. EVA PERON 3668 / 3700 Y MARIANO ACOSTA, PARQUE AVELLANEDA","ACOSTA, MARIANO",,"PERON, EVA AV.",Parque Avellaneda,Comuna 9
-58.382500457564,-34.6314404703079,92,OIL,TOPEMA S.A.,30-63122550-7,DUAL,"AVDA. CASEROS 1399 Y SALTA, CONSTITUCION",CASEROS AV.,,SALTA,Constitucion,Comuna 1
-58.47882090671829,-34.685071223005,93,OIL,ESTACION DE SERVICIO VAZQUEZ HNOS S.R.L.,30-63617801-9,LIQUIDOS,"AV. LUIS PIEDRA BUENA 4611, CAPITAL FEDERAL",PIEDRA BUENA AV.,,UNANUE,Villa Riachuelo,Comuna 8
-58.4868409739881,-34.6475433260305,94,OIL,WHITE S.R.L.,30-64397982-5,DUAL,"AVDA. DIRECTORIO 4586, FLORESTA",DIRECTORIO AV.,4586.0,WHITE,Parque Avellaneda,Comuna 9
-58.5240135571704,-34.649703191764395,95,OIL,PASCUALITO S.A.,30-51604787-5,LIQUIDOS,"CARHUE 996, CAPITAL FEDERAL",CARHUE,996.0,"CHAVEZ, JORGE",Liniers,Comuna 9
-58.3767433397527,-34.6489388980601,96,OIL,LUBRIPARK S.R.L.,30-60722333-1,LIQUIDOS,"VIEYTES 1410 E IRIARTE, BARRACAS","IRIARTE, GRAL. AV.",,VIEYTES,Barracas,Comuna 4
-58.4426148523189,-34.61185872923649,97,PDVSUR,EDIFICADORA MARTINEZ ANNES S.A.C.I.I.,30-55663427-7,DUAL,"AVDA. HONORIO PUEYRREDON 710 Y FELIPE VALLESE, CABALLITO","PUEYRREDON, HONORIO, DR. AV.",,"VALLESE, FELIPE",Caballito,Comuna 6
-58.5078817682256,-34.634670928400695,98,PDVSUR,RUTA AL OESTE S.R.L.,30-59142058-1,DUAL,"AVDA. JUAN B. JUSTO 8490 E IRIGOYEN, VILLA LURO - C.A.B.A.",IRIGOYEN,,"JUSTO, JUAN B. AV.",Villa Luro,Comuna 10
-58.467999559873,-34.5613994549019,155,PETROBRAS,DON DELFIN S.A.,30-63935426-8,DUAL,"AVDA. RICARDO BALBIN 2603, BELGRANO","BALBIN, RICARDO, DR. AV.",2603.0,ROOSEVELT FRANKLIN D.,Coghlan,Comuna 12
-58.445162581994104,-34.559176516342696,165,PETROBRAS,Eg3 RED S.A. (La Pampa),30-69161718-0,LIQUIDOS,"AV. LIBERTADOR 5747, CAPITAL FEDERAL",DEL LIBERTADOR AV.,5747.0,LA PAMPA,Belgrano,Comuna 13
-58.4642596549386,-34.5965802746071,166,PETROBRAS,OCTOBER S.A.,30-64704616-5,DUAL,"WARNES 2040, CAPITAL FEDERAL","GARCIA, JUAN AGUSTIN",2040.0,WARNES AV.,Paternal,Comuna 15
-58.405697195790786,-34.5978705910519,167,PETROBRAS,Eg3 RED S.A. (CORDOBA),30-69161718-0,GNC,"AV. CORDOBA 2733/35, CAPITAL FEDERAL",CORDOBA AV.,,ECUADOR,Recoleta,Comuna 2
-58.4405287402042,-34.608490662657,168,PETROBRAS,GASIT S.A.,30-64262178-1,GNC,"DIAZ VELEZ 5231, CAPITAL FEDERAL",ACOYTE,5231.0,DIAZ VELEZ AV.,Caballito,Comuna 6
-58.399464729465706,-34.5693569716973,169,PETROBRAS,Eg3 RED S.A. (COSTANERA Y SALGUERO),30-69161718-0,DUAL,"AV. COSTANERA R. OBLIGADO Y SALGUERO, CAPITAL FEDERAL","OBLIGADO RAFAEL, AV.COSTANERA",,"SALGUERO, JERONIMO",Palermo,Comuna 14
-58.5171402907461,-34.6529362995701,170,PETROBRAS,BEIZAMA S.A.,30-64696577-9,LIQUIDOS,"EMILIO CASTRO Y COSQUIN, CAPITAL FEDERAL","CASTRO, EMILIO AV.",,COSQUIN,Mataderos,Comuna 9
-58.443088999144,-34.629521129876196,171,PETROBRAS,GASTAB S.A.,33-64172059-9,DUAL,"DIRECTORIO 1110, CAPITAL FEDERAL",DIRECTORIO AV.,1110.0,"MITRE, EMILIO",Parque Chacabuco,Comuna 7
-58.5012177713614,-34.6739628585508,172,PETROBRAS,"ANTONIO, TOMAS RAMON",23-93486129-9,DUAL,"AV. DEL TRABAJO 7460, CAPITAL FEDERAL","PERON, EVA AV.",,"PAZ, GRAL. AV.",Villa Lugano,Comuna 8
-58.3913567613483,-34.6216812042837,156,PETROBRAS,COMBUSTIBLES VAZQUEZ HNOS. S.R.L.,30-63617795-0,DUAL,"ENTRE RIOS 1102 Y HUMBERTO 1›, CAPITAL FEDERAL",ENTRE RIOS AV.,,HUMBERTO 1\u00b0,Constitucion,Comuna 1
-58.4238689602541,-34.5976544972201,157,PETROBRAS,GALPRO S.A.,30-64600655-0,GNC,"AV. CORDOBA 4060, CAPITAL FEDERAL",CORDOBA AV.,4060.0,ESTADO DE ISRAEL AV.,Villa Crespo,Comuna 15
-58.3895978243258,-34.640862650793096,158,PETROBRAS,Eg3 RED S.A. (V.SARFIELD),30-69161718-0,DUAL,"AV.V.SARFIELD Y CORTEJARENA, CAPITAL FEDERAL","CORTEJARENA, JOSE A.",,VELEZ SARSFIELD AV.,Barracas,Comuna 4
-58.5186062539301,-34.6393099812785,159,PETROBRAS,Eg3 RED S.A. (LINIERS),30-69161718-0,DUAL,"RIVADAVIA 10984 Y MURGUIONDO, CAPITAL FEDERAL",MURGUIONDO,,RIVADAVIA AV.,Liniers,Comuna 9
-58.46788019846071,-34.6508914958894,160,PETROBRAS,EVAH S.A.,30-64441993-9,DUAL,"LACARRA 1729, CAPITAL FEDERAL",ECHEANDIA,1729.0,LACARRA AV.,Parque Avellaneda,Comuna 9
-58.46847648453079,-34.5480971498367,161,PETROBRAS,Eg3 RED S.A. (Alvisa),30-69161718-0,DUAL,"AV. CABILDO ESQ JARAMILLO, CAPITAL FEDERAL",CABILDO AV.,,"RIVADAVIA MARTIN, COMODORO",Nu\u00f1ez,Comuna 13
-58.421274019674996,-34.621220047414305,162,PETROBRAS,GRUPO GAS S.R.L.,30-64588100-8,GNC,"AV. INDEPENDENCIA 3933, CAPITAL FEDERAL",INDEPENDENCIA AV.,3933.0,YAPEYU,Almagro,Comuna 5
-58.4636427127717,-34.608243543529,163,PETROBRAS,CONSTRUCTORA DEL POLO S.A.,30-69286757-9,DUAL,"TRELLES 1671, CAPITAL FEDERAL","JUSTO, JUAN B. AV.",1671.0,"TRELLES, MANUEL R.",Villa Gral. Mitre,Comuna 11
-58.410123473570096,-34.610616860092804,164,PETROBRAS,Eg3 RED S.A.  (ONCE),30-69161718-0,DUAL,"AV. RIVADAVIA  3084 Y URQUIZA, CAPITAL FEDERAL","JAURES, JEAN",,RIVADAVIA AV.,Balvanera,Comuna 3
-58.4875079220236,-34.6364460694244,681,RHASA,R E M E S A,30-65084645-8,DUAL,"AV. OLIVERA 95 ESQ. RAMON FALCON, CAPITAL FEDERAL","FALCON, RAMON L.,CNEL.",,OLIVERA AV.,Velez Sarsfield,Comuna 10
-58.4504940180336,-34.5886721619783,173,SHELL,DEHEZA SAICFEI,30-51618667-0,DUAL,"AV. CORRIENTES 6535 Y NEWBERY, CAPITAL FEDERAL",CORRIENTES AV.,,FOREST AV.,Chacarita,Comuna 15
-58.462972677137785,-34.6072155233816,174,SHELL,BRAMO S.A.,30-57430085-8,LIQUIDOS,"AV. JUAN B. JUSTO 4407, CAPITAL FEDERAL","ALVAREZ, DONATO, TTE. GRAL.",4407.0,"JUSTO, JUAN B. AV.",Villa Gral. Mitre,Comuna 11
-58.458329213356286,-34.5698796954488,175,SHELL,PRESIDENTE URIBURU 1262 SRL,30-70197268-2,DUAL,"AV. DE LOS INCAS 3019, CAPITAL FEDERAL",DE LOS INCAS AV.,3019.0,"ZUBERBUHLER, CARLOS E.",Belgrano,Comuna 13
-58.4615915917539,-34.6034354439835,176,SHELL,FAST OIL S.A.,30-70208832-8,LIQUIDOS,"AV. SAN MARTIN 2401, CAPITAL FEDERAL","ORO\u00d1O, NICASIO",2401.0,SAN MARTIN AV.,Paternal,Comuna 15
-58.4573711657086,-34.5688636770155,177,SHELL,DEHEZA SAICFEI,30-51618667-0,LIQUIDOS,"AV. CRAMER 1691, CAPITAL FEDERAL",CRAMER,1691.0,"PINO, VIRREY DEL",Belgrano,Comuna 13
-58.405479558618495,-34.649839778165195,178,SHELL,PASGAL SA,30-60889733-6,LIQUIDOS,"ATUEL 1093, CAPITAL FEDERAL","ALCORTA, AMANCIO AV.",1093.0,ATUEL,Nueva Pompeya,Comuna 4
-58.46458986582721,-34.6239708975902,179,SHELL,AVELLANEDA  2411 SRL 2,30-70804129-3,LIQUIDOS,"AV. AVELLANEDA 2411, CAPITAL FEDERAL",AVELLANEDA AV.,2411.0,FRAY CAYETANO RODRIGUEZ,Flores,Comuna 7
-58.4343183130453,-34.585420167188396,180,SHELL,JUAN B JUSTO 1333 S.A,33-64966902-9,DUAL,"AV.JUAN B.JUSTO 1333, CAPITAL FEDERAL",DARWIN,1333.0,HONDURAS,Palermo,Comuna 14
-58.4702532468394,-34.643717320395005,181,SHELL,ROAL S R L,30-57770479-8,LIQUIDOS,"MARIANO ACOSTA 1195, CAPITAL FEDERAL","ACOSTA, MARIANO AV.",1195.0,"LAFERRERE, GREGORIO DE",Parque Avellaneda,Comuna 9
-58.4855016238507,-34.606818403492305,182,SHELL,ESTACION DE SERVICIO LASCANO 2000 S,30-70729527-5,DUAL,"NAZCA 2502, CAPITAL FEDERAL",LASCANO,2502.0,NAZCA AV.,Villa Del Parque,Comuna 11
-58.3730791865843,-34.649139920538694,183,SHELL,MONTES DE OCA 1885 S.R.L.,30-71249044-2,DUAL,"AV. MONTES DE OCA 1885 Y RIO CUARTO, CAPITAL FEDERAL","HORNOS, GRAL.",,RIO CUARTO,Barracas,Comuna 4
-58.3932264879379,-34.5723500703277,184,SHELL,DEHEZA SAICFEI N.39,30-51618667-0,LIQUIDOS,"AV RAFAEL OBLIGADO S/N Y CALLE 13 S/N, CAPITAL FEDERAL","CASTILLO, RAMON S., PRES. AV.",,"OBLIGADO RAFAEL, AV.COSTANERA",Recoleta,Comuna 2
-58.4349542651776,-34.5749939265377,185,SHELL,DEHEZA SAICFEI,30-51618667-0,LIQUIDOS,"AV. SANTA FE 5371, CAPITAL FEDERAL",CABILDO AV.,5371.0,DORREGO AV.,Palermo,Comuna 14
-58.4519317764286,-34.5465131949693,186,SHELL,DEHEZA SAICFEI,30-51618667-0,LIQUIDOS,"AV. FIGUEROA ALCORTA 7786, CAPITAL FEDERAL","FIGUEROA ALCORTA, PRES. AV.",7786.0,"UDAONDO, GUILLERMO AV.",Belgrano,Comuna 13
-58.429009257558796,-34.608906728621,187,SHELL,DEHEZA S.A.,30-51618667-0,LIQUIDOS,"AV. DIAZ VELEZ 4368, CAPITAL FEDERAL",DIAZ VELEZ AV.,4368.0,YATAY,Almagro,Comuna 5
-58.424002303991095,-34.6448175727208,188,SHELL,MANZANO HNOS.,30-52949557-5,LIQUIDOS,"GUAL 2435, CAPITAL FEDERAL","FERNANDEZ DE LA CRUZ, F., GRAL. AV.",2435.0,GUAL,Nueva Pompeya,Comuna 4
-58.463061211999104,-34.5418910352309,189,SHELL,DEHEZA SAICFEI,30-51618667-0,LIQUIDOS,"AV. LIBERTADOR 7920, CAPITAL FEDERAL",DEL LIBERTADOR AV.,7920.0,"RIVADAVIA MARTIN, COMODORO",Nu\u00f1ez,Comuna 13
-58.510272614836104,-34.5994791140932,190,SHELL,DEHEZA SAICFEI,30-51618667-0,LIQUIDOS,"LINCOLN 3999, CAPITAL FEDERAL",BAHIA BLANCA,3999.0,LINCOLN AV.,Villa Devoto,Comuna 11
-58.415989755996286,-34.6155169431677,191,SHELL,DEHEZA SAICFEI,30-51618667-0,LIQUIDOS,"MAZA 391/97, CAPITAL FEDERAL",BELGRANO AV.,,MAZA,Almagro,Comuna 5
-58.409047380362395,-34.6039307128592,192,SHELL,YAPAY NEASA S.R.L.,30-69524367-3,LIQUIDOS,"AV. CORRIENTES 3101, CAPITAL FEDERAL",CORRIENTES AV.,3101.0,"JAURES, JEAN",Balvanera,Comuna 3
-58.5155569020701,-34.608420291799696,193,SHELL,SUPERSERVICE S.A.,30-57040767-4,LIQUIDOS,"AV. FRANCISCO BEIR… 4610, CAPITAL FEDERAL","BEIRO, FRANCISCO AV.",4610.0,"JUAREZ, BENITO",Villa Devoto,Comuna 11
-58.48091006695071,-34.5562892751552,194,SHELL,YAPAY NEASA S.R.L.,30-69524367-3,LIQUIDOS,"AV. BALBIN 3560, CAPITAL FEDERAL","BALBIN, RICARDO, DR. AV.",3560.0,"LARRALDE, CRISOLOGO AV.",Saavedra,Comuna 12
-58.4784308362395,-34.6775950540175,195,SHELL,CASTAÑO AUTOVOX SRL,33-71227653-9,LIQUIDOS,"AV. T.G.DELLEPIANE 5950 Y CAFAYATE, CAPITAL FEDERAL","DELLEPIANE, LUIS, TTE. GRAL.",,AUTOPISTA DELLEPIANE LUIS TTE. GRAL.,Villa Lugano,Comuna 8
-58.3829715817994,-34.6460388013935,196,SHELL,INTEGRAL ESTACION SOLA S.A.,33-59794471-9,LIQUIDOS,"AUSTRALIA 2550, CAPITAL FEDERAL",AUSTRALIA AV.,2550.0,SALOM,Barracas,Comuna 4
-58.4593596346651,-34.622490889537694,197,SHELL,ALBERDI 2299 SRL - 285,33-70934480-9,LIQUIDOS,"AV. BOYACæ 383, CAPITAL FEDERAL",AVELLANEDA AV.,383.0,BOYACA AV.,Flores,Comuna 7
-58.4110055795015,-34.6202190748471,198,SHELL,DEHEZA SAICFEI,30-51618667-0,LIQUIDOS,"24 DE NOVIEMBRE E INDEPENDENCIA, CAPITAL FEDERAL",INDEPENDENCIA AV.,,24 DE NOVIEMBRE,Balvanera,Comuna 3
-58.426023292379206,-34.6313202546496,199,SHELL,ESTACION S.A,30-70705946-6,LIQUIDOS,"ASAMBLEA 19, CAPITAL FEDERAL",ASAMBLEA AV.,19.0,LA PLATA AV.,Parque Chacabuco,Comuna 7
-58.390560563174894,-34.5986406825575,200,SHELL,SERVINORTE S.A.,30-64572255-4,DUAL,"PARAGUAY 1676, CAPITAL FEDERAL","CAPDEVILA, ARTURO",1676.0,PARAGUAY,Recoleta,Comuna 2
-58.46640589109901,-34.6168427260526,201,SHELL,CARACAS COMBUSTIBLE SRL - 28,30-71001101-6,LIQUIDOS,"AV. GAONA 2886, CAPITAL FEDERAL",CARACAS,2886.0,GAONA AV.,Flores,Comuna 7
-58.4191417631311,-34.5979535271792,202,SHELL,DEHEZA SAICFEI,30-51618667-0,LIQUIDOS,"AV. C…ORDOBA 3710 Y SALGUERO, CAPITAL FEDERAL",CORDOBA AV.,,"SALGUERO, JERONIMO",Almagro,Comuna 5
-58.391226812708794,-34.629631386384695,203,SHELL,ROCCA COMBUSTIBLES SA - 486,30-63776900-2,LIQUIDOS,"AV. ENTRE RIOS 1803, CAPITAL FEDERAL",BRASIL,1803.0,ENTRE RIOS AV.,Parque Patricios,Comuna 4
-58.404401277430495,-34.616925031993105,204,SHELL,"IMPIERI, PIÑEIRO, RIZZO Y ASOCIADOS S.A.",30-71228904-6,DUAL,"MEXICO 2701 Y JUJUY, CAPITAL FEDERAL",JUJUY AV.,,MEXICO,Balvanera,Comuna 3
-58.4737496583984,-34.5413789711133,205,SHELL,DEHEZA SAICFEI,30-51618667-0,LIQUIDOS,"AV. CABILDO 4701, CAPITAL FEDERAL",CABILDO AV.,4701.0,DEHEZA,Nu\u00f1ez,Comuna 13
-58.4000268262593,-34.5796002023137,206,SHELL,DEHEZA SAICFEI,30-51618667-0,LIQUIDOS,"AV. FIGUEROA ALCORTA 3099, CAPITAL FEDERAL","CASTILLA, RAMON, MARISCAL",3099.0,OBARRIO MANUEL,Palermo,Comuna 14
-58.5048611047553,-34.5603392494382,207,SHELL,DEHEZA SA,30-51618667-0,LIQUIDOS,"AV. GRAL. PAZ 5500- MANO CAPITAL, CAPITAL FEDERAL","GERCHUNOFF, ALBERTO",,"PAZ, GRAL. AV.",Saavedra,Comuna 12
-58.4338582866393,-34.5844401471111,208,SHELL,DEFAZIO S.A.,30-70765158-6,DUAL,"AV.JUAN B.JUSTO 1502, CAPITAL FEDERAL",EL SALVADOR,1502.0,"JUSTO, JUAN B. AV.",Palermo,Comuna 14
-58.3696708210252,-34.6180772278652,209,SHELL,DEHEZA SAICFEI,30-51618667-0,LIQUIDOS,"AV. PASEO COLON 849, CAPITAL FEDERAL","GIUFFRA, JOSE M.,DR.",849.0,PASEO COLON AV.,San Telmo,Comuna 1
-58.3906617939471,-34.6303404053316,210,SHELL,ROCCA COMBUSTIBLES SA - 1307,30-63776900-2,LIQUIDOS,"AV. ENTRE RIOS 1890, CAPITAL FEDERAL","ECHAGUE, PEDRO",1890.0,ENTRE RIOS AV.,Constitucion,Comuna 1
-58.51674912948461,-34.6329308448949,211,SHELL,SERVICIO SAN JORGE S.A.,30-67791583-4,LIQUIDOS,"AV JUAN B. JUSTO Nõ 9091, CAPITAL FEDERAL","JUSTO, JUAN B. AV.",,MIRANDA,Versalles,Comuna 10
-58.3867466765056,-34.637011576777304,212,SHELL,GHIOLDI HNOS S A T C I F,30-52996331-5,LIQUIDOS,"AV.AMANCIO ALCORTA Y LOS PATOS, CAPITAL FEDERAL",LOS PATOS,,PERDRIEL,Barracas,Comuna 4
-58.3909364200992,-34.5763701730918,213,SHELL,DEHEZA SAICFEI,30-51618667-0,LIQUIDOS,"AUT. ILLIA ENTRE 7 Y PEAJE, CAPITAL FEDERAL","CASTILLO, RAMON S., PRES. AV.",,SIN NOMBRE OFICIAL (ALT. AV RAFAEL OBLIGADO 1170),Recoleta,Comuna 2
-58.49629042982221,-34.6554774605901,214,SHELL,PARENTE MARGARITA,27-15248236-7,LIQUIDOS,"AV.DIRECTORIO 5698, CAPITAL FEDERAL",DIRECTORIO AV.,5698.0,LARRAYA,Mataderos,Comuna 9
-58.4700577704529,-34.5786528376455,215,SHELL,ROJO Y AMARILLO SRL,30-70855280-8,LIQUIDOS,"A.THOMAS 2010, CAPITAL FEDERAL",ALVAREZ THOMAS AV.,2010.0,DONADO,Villa Ortuzar,Comuna 15
-58.5126631454299,-34.6589444589008,216,SHELL,ROCCA COMBUSTIBLES S.A.,30-63776900-2,LIQUIDOS,"Av. Juan B. Alberdi 7019 Y CARHUE, CAPITAL FEDERAL",ARTIGAS MANUEL DE,,CARHUE,Mataderos,Comuna 9
-58.4909776807058,-34.5826688262097,218,SHELL,ACENAF S.R.L.,30-68069096-7,LIQUIDOS,"AV.DE LOS CONTITUYENTES 4435, CAPITAL FEDERAL","CUBAS, JOSE",,DE LOS CONSTITUYENTES AV.,Villa Urquiza,Comuna 12
-58.484967473680804,-34.5890880020307,219,SHELL,COLON S.R.L.,30-51677394-0,LIQUIDOS,"AV. CONSTITUYENTES 3516, CAPITAL FEDERAL","BEIRO, FRANCISCO AV.",3516.0,DE LOS CONSTITUYENTES AV.,Agronomia,Comuna 15
-58.416273928616896,-34.637933453393394,220,SHELL,DEVOTO STATION SA,33-70085127-9,LIQUIDOS,"AV. CHICLANA 3702, CAPITAL FEDERAL",BOEDO AV.,3702.0,CHICLANA AV.,Boedo,Comuna 5
-58.3635546483074,-34.6300295305156,221,SHELL,UPAT,30-61180071-8,DUAL,"AVENIDA ALMIRANTE GUILLERMO BROWN 600 Y 20 DE SEPTIEMBRE, CAPITAL FEDERAL","BROWN, ALTE. AV.",,20 DE SETIEMBRE,Boca,Comuna 4
-58.3814191110808,-34.589289513957404,222,SHELL,DEHEZA SAICFEI,30-51618667-0,LIQUIDOS,"LIBERTADOR 550, CAPITAL FEDERAL",DEL LIBERTADOR AV.,550.0,"PELLEGRINI, CARLOS",Retiro,Comuna 1
-58.4693295921429,-34.6969705419266,223,SHELL,TRIGAS S.A.,30-64449690-9,DUAL,"AV.CNEL.ROCA N› 6883, CAPITAL FEDERAL","ROCA, CNEL. AV.",,SALADILLO,Villa Riachuelo,Comuna 8
-58.4448803005485,-34.6609308383233,224,SHELL,GOMCOM SA,33-70817210-9,DUAL,"AV F.F.DE LA CRUZ 3205, CAPITAL FEDERAL","FERNANDEZ DE LA CRUZ, F., GRAL. AV.",3205.0,PORTELA,Villa Soldati,Comuna 8
-58.4663395382481,-34.5681296162712,225,SHELL,CRISTINA ISABELLI DE MARTINEZ E HIJOS SH,30-70868888-2,LIQUIDOS,"JURAMENTO 3411, CAPITAL FEDERAL",JURAMENTO,3411.0,SUPERI,Belgrano,Comuna 13
-58.3817623308788,-34.6180641685866,226,SHELL,ESTACION LIMA SA,30-53767985-5,LIQUIDOS,"LIMA 835/99, CAPITAL FEDERAL",INDEPENDENCIA AV.,,LIMA,Constitucion,Comuna 1
-58.442988512416704,-34.5622495969563,227,SHELL,DEHEZA SAICFEI N.33,30-51618667-0,LIQUIDOS,"AV. LIBERTADOR 5414, CAPITAL FEDERAL",DEL LIBERTADOR AV.,5414.0,SOLDADO DE LA INDEPENDENCIA,Belgrano,Comuna 13
-58.426943048759796,-34.591919351430604,228,SHELL,KINKA S.A.,30-61553006-5,LIQUIDOS,"AV.RAUL S. ORTIZ 1406, CAPITAL FEDERAL",GORRITI,1406.0,"SCALABRINI ORTIZ, RAUL AV.",Palermo,Comuna 14
-58.4599947192755,-34.6305300698512,229,SHELL,ALBERDI 2299 SRL 2,33-70934480-9,DUAL,"AV. JUAN B. ALBERDI 2299, CAPITAL FEDERAL","ALBERDI, JUAN BAUTISTA AV.",2299.0,MEMBRILLAR,Flores,Comuna 7
-58.41772599423822,-34.6385434602086,111,SIN MARCA,CHICLANA 3827 S.R.L.,30-66307899-9,DUAL,"AVDA. CHICLANA 3827, BOEDO",CHICLANA AV.,3827.0,"JANTIN, JUAN BAUTISTA",Boedo,Comuna 5
-58.4933108623375,-34.5942400783363,110,SIN MARCA,GNC AGRONOMIA S.A.,30-64935548-3,GNC,"AV. FCO. BEIRO 2801, CAPITAL FEDERAL","BEIRO, FRANCISCO AV.",2801.0,TERRADA,Agronomia,Comuna 15
-58.5020517557344,-34.6669416940055,109,SIN MARCA,ESPINOZA RUBEN EMILIO,20-04824852-8,,"CARDENAS 2694 Y SAN PEDRO, MATADEROS","CARDENAS, CNEL. AV.",,SAN PEDRO,Mataderos,Comuna 9
-58.451399250243995,-34.6157007737496,108,SIN MARCA,CASADO DANIEL ANGEL,20-07727312-4,,"NEUQUEN 1241 Y PAYSANDU, CABALLITO",AMBERES,,NEUQUEN,Caballito,Comuna 6
-58.41031751520579,-34.6152909657718,107,SIN MARCA,POLICIA FEDERAL ARGENTINA (SECCION COMBUSTIBLES),30-62405191-9,LIQUIDOS,"AVDA. BELGRANO 3144 E/URQUIZA Y 24 DE NOVIEMBRE, BALVANERA",BELGRANO AV.,,"URQUIZA, GRAL.",Balvanera,Comuna 3
-58.448869032419005,-34.6002204331651,106,SIN MARCA,COMBUSTIBLES WARNES S.R.L.,30-70859181-1,LIQUIDOS,"AVDA. WARNES 880, VILLA CRESPO - C.A.B.A.",THAMES,880.0,WARNES AV.,Villa Crespo,Comuna 15
-58.385166186394216,-34.5777002315463,105,SIN MARCA,DEL BUEN PUERTO S.R.L.,30-70802799-1,LIQUIDOS,"JUNIN S/N E/ CASTILLO Y RAFAEL OBLIGADO (DARSENA F), PUERTO - C.A.B.A.",CALLE 12 (NO OFICIAL),,CALLE 13 (NO OFICIAL),Recoleta,Comuna 2
-58.475020174899996,-34.6058204323322,104,SIN MARCA,NAF GAS S.A.,30-69544390-7,DUAL,"CARACAS 2319 Y AVDA. ALVARES JONTE, PATERNAL - C.A.B.A.",ALVAREZ JONTE,,CARACAS,Villa Del Parque,Comuna 11
-58.5192520699312,-34.610100311848,103,SIN MARCA,INDEGAS SA,33-64545312-9,GNC,"AVENIDA FRANCISCO BEIRO ENTRE QUEVEDO Y DESAGUADERO, CAPITAL FEDERAL","BEIRO, FRANCISCO AV.",,QUEVEDO,Villa Devoto,Comuna 11
-58.4679397587856,-34.5894500940309,102,SIN MARCA,RIVELLO NILDA EUSEBIA,27-09999306-0,,"HEREDIA 207 Y DEL CAMPO, CHACARITA - C.A.B.A.",DEL CAMPO AV.,,HEREDIA,Villa Ortuzar,Comuna 15
-58.4656092936952,-34.538318941477996,101,SIN MARCA,PEGO S.A.,30-68242004-5,,"AVDA. DEL LIBERTADOR 8404 Y ARIAS, NUÑEZ",ARIAS,,DEL LIBERTADOR AV.,Nu\u00f1ez,Comuna 13
-58.508741833836496,-34.6387310168051,100,SIN MARCA,ORTFRE S.R.L.,30-68369127-1,LIQUIDOS,"AVDA. RIVADAVIA 10301 Y DUPUY, VILLA LURO - C.A.B.A.",CORVALAN,,DUPUY,Villa Luro,Comuna 10
-58.3788662107895,-34.6183511892693,99,SIN MARCA,LUPONE RICARDO DANIEL,20-17254687-1,LIQUIDOS,"TACUARI 885 Y ESTADOS UNIDOS, CAPITAL FEDERAL",ESTADOS UNIDOS,,TACUARI,Constitucion,Comuna 1
-58.4248942629212,-34.6338513179599,113,SOL,CASAMASSIMA Y CAVALLIERI S.H.,30-70807233-4,LIQUIDOS,"AV. LA PLATA 1614 ESQ. INCLAN, CAPITAL FEDERAL",INCLAN,,LA PLATA AV.,Boedo,Comuna 5
-58.3960769245871,-34.6166710668915,112,SOL,GRAN GARAGE RINCON 658 S.R.L.,30-53776273-6,LIQUIDOS,"RINCON 658, BALVANERA",CHILE,658.0,RINCON,Balvanera,Comuna 3
-58.5205720140835,-34.5946699536668,83,YPF,MARIA CRISTINA CORTTI,27-12743362-9,LIQUIDOS,"AVENIDA GENERAL JOSE MARIA PAZ 6850 Y AVENIDA GENERAL PAZ, CAPITAL FEDERAL",GRIVEO,,"PAZ, GRAL. AV.",Villa Devoto,Comuna 11
-58.471840226101705,-34.6315510348823,82,YPF,ACA FLORES,30-50014329-7,DUAL,"AVENIDA BERNARDINO RIVADAVIA 7530 Y JOSE MARTI, CAPITAL FEDERAL",HELGUERA,,"MARTI, JOSE",Flores,Comuna 7
-58.43219820715589,-34.5831101249381,81,YPF,OPESSA NICARAGUA,30-67877449-5,LIQUIDOS,"AVENIDA J B JUSTO 1215 Y NICARAGUA, CAPITAL FEDERAL","JUSTO, JUAN B. AV.",,NICARAGUA,Palermo,Comuna 14
-58.4697803813015,-34.6651318118201,80,YPF,CALITRI F L Y NIETO A H SH,33-70940148-9,LIQUIDOS,"GENERAL M DE ESCALADA 2951 Y ARTIGAS, CAPITAL FEDERAL",CASTA\u00d1ARES AV.,,ESCALADA AV.,Villa Lugano,Comuna 8
-58.4617299317022,-34.6498715028608,79,YPF,SUPER SERVICIOS SA,30-65423606-9,LIQUIDOS,"CAMBIESES 1780 Y FRANK BROWN, CAPITAL FEDERAL","ACOSTA, MARIANO",,"MORENO, PERITO AV.",Flores,Comuna 7
-58.385516562064105,-34.6282613830027,78,YPF,SAN-BRA,30-64426361-0,GNC,"BRASIL Y SAN JOSE, CAPITAL FEDERAL",BRASIL,,SAN JOSE,Constitucion,Comuna 1
-58.4341985033939,-34.6126807892654,77,YPF,AVEGAS SA,30-64189440-7,GNC,"AVENIDA AVELLANEDA 250 ENTRE CAMPICHUELO Y OTAMENDI, CAPITAL FEDERAL",AVELLANEDA,,SAN SEBASTIAN,Caballito,Comuna 6
-58.4779207819039,-34.6730519526957,76,YPF,NAFPUR XXI SA,30-70798373-2,GNC,"JUAN ZELARRAYAN 5530 Y AVENIDA ARGENTINA, CAPITAL FEDERAL",ARGENTINA AV.,,ZELARRAYAN,Villa Lugano,Comuna 8
-58.413687622727004,-34.6104608390953,19,YPF,OPESSA ACA ONCE,30-67877449-5,LIQUIDOS,"AVENIDA RIVADAVIA 3341 Y AGUERO, CAPITAL FEDERAL",AGUERO,,ESPARZA,Balvanera,Comuna 3
-58.495840686674214,-34.5550291730296,75,YPF,ESTACION DE SERVICIO NORTENA SRL,30-53778132-3,DUAL,"AVENIDA DR RICARDO BALBIN 4491 Y CORREA, CAPITAL FEDERAL","BALBIN, RICARDO, DR. AV.",,GALVAN,Saavedra,Comuna 12
-58.46811002511151,-34.6254809147282,74,YPF,GNC AVELLANEDA,30-64181927-8,DUAL,"AVENIDA DR NICOLAS AVELLANEDA ENTRE CONDARCO Y BOLIVIA, CAPITAL FEDERAL",AVELLANEDA AV.,,ESTADO PLURINACIONAL DE BOLIVIA,Flores,Comuna 7
-58.4764707236135,-34.6734519689853,73,YPF,NAFPUR SA,33-60872427-9,DUAL,"LARRAZABAL Y ZELARRAYAN, CAPITAL FEDERAL","DELLEPIANE, LUIS, TTE. GRAL.",,LARRAZABAL,Villa Lugano,Comuna 8
-58.4290483561094,-34.6224210367243,72,YPF,RERIFE SA,30-67790900-1,LIQUIDOS,"AVENIDA ALBERDI 100 Y SENILLOSA, CAPITAL FEDERAL","ALBERDI, JUAN BAUTISTA AV.",,SENILLOSA,Caballito,Comuna 6
-58.498361353617106,-34.6328409336327,71,YPF,CORRO NORTE SA,33-55274485-9,LIQUIDOS,"AVENIDA CANONIGO M DEL CORRO 501 Y ARANGUREN, CAPITAL FEDERAL","ARANGUREN, JUAN F., DR.",,"CORRO, MIGUEL C. DEL, CANONIGO AV.",Velez Sarsfield,Comuna 10
-58.4409587191568,-34.6030305360416,70,YPF,NOCEDA SA,30-59730428-1,DUAL,"AVENIDA CNEL IGNACIO WARNES 236 Y CAMPICHUELO, CAPITAL FEDERAL","MARECHAL, LEOPOLDO",,WARNES AV.,Villa Crespo,Comuna 15
-58.49100099920671,-34.6267308305213,69,YPF,DARSISA SA,30-68692984-8,LIQUIDOS,"AVENIDA DR JUAN BAUTISTA JUSTO 7099 Y AVENIDA SEGUROLA, CAPITAL FEDERAL","JUSTO, JUAN B. AV.",,SEGUROLA AV.,Floresta,Comuna 10
-58.498101150984795,-34.6062803291439,68,YPF,GOPA SACIF Y A,33-52022773-9,LIQUIDOS,"NOGOYA 3641 ENTRE EMILIO LAMARCA Y CONCORDIA, CAPITAL FEDERAL","LAMARCA, EMILIO",,NOGOYA,Villa Del Parque,Comuna 11
-58.4804104174218,-34.6079504543686,67,YPF,FUENTE DE PETROLEO SA,30-64629791-1,LIQUIDOS,"AVENIDA ANTONIO ALVAREZ JONTE 2695 Y CONDARCO, CAPITAL FEDERAL",ALVAREZ JONTE AV.,,CONDARCO,Villa Del Parque,Comuna 11
-58.4651097797667,-34.608960552667,66,YPF,ARGAS SA,30-64357490-6,GNC,"AVENIDA DR JUAN BAUTISTA JUSTO 4611, CAPITAL FEDERAL","JUSTO, JUAN B. AV.",,NIZA,Villa Gral. Mitre,Comuna 11
-58.527602599412,-34.6346408302503,65,YPF,GASOLEO SA,30-62009805-8,LIQUIDOS,"AVENIDA DR JUAN BAUTISTA JUSTO 9750 ENTRE GHANA Y CUZCO, CAPITAL FEDERAL","PAZ, GRAL. AV.",,AUTOPISTA PERITO MORENO,Versalles,Comuna 10
-58.437168277179204,-34.563639657119396,64,YPF,SUPER SERVICIO SA,30-65423606-9,LIQUIDOS,"AVENIDA DEL LIBERTADOR 5002 Y OLLEROS, CAPITAL FEDERAL",DEL LIBERTADOR AV.,,OLLEROS AV.,Palermo,Comuna 14
-58.42637805581821,-34.5962304524686,63,YPF,OPESSA PRINGLES,30-67877449-5,LIQUIDOS,"AVENIDA CORDOBA 4201 Y PRINGLES, CAPITAL FEDERAL",CORDOBA AV.,,PRINGLES,Palermo,Comuna 14
-58.4325286002592,-34.6359913293807,62,YPF,PSF UNISERVICIOS,30-68281630-5,LIQUIDOS,"AVENIDA JOSE M MORENO 1485 Y AVELLINO DIAZ, CAPITAL FEDERAL","DIAZ, AVELINO",,"MORENO, JOSE MARIA AV.",Parque Chacabuco,Comuna 7
-58.38999670949389,-34.6224512285013,61,YPF,SAN JUAN Y SOLIS ALVAREZ Y DI LEVA SA,30-54025916-6,LIQUIDOS,"AVENIDA SAN JUAN 1701 Y SOLIS, CAPITAL FEDERAL",SAN JUAN AV.,,SOLIS,Constitucion,Comuna 1
-58.3993772586347,-34.6439016723885,60,YPF,MADRO SA,30-67918597-3,LIQUIDOS,"AVENIDA AMANCIO ALCORTA 2711 Y MONTESQUIEU, CAPITAL FEDERAL","ALCORTA, AMANCIO AV.",,MONTESQUIEU,Parque Patricios,Comuna 4
-58.442068857812785,-34.6158308225162,59,YPF,KLIVE SA,30-57836777-9,LIQUIDOS,"COLPAYO 406 Y AVELLANEDA, CAPITAL FEDERAL",AVELLANEDA,,COLPAYO,Caballito,Comuna 6
-58.389226837572785,-34.6449017448586,58,YPF,OPESSA ACA VELEZ SARSFIELD,30-67877449-5,LIQUIDOS,"AVENIDA DR VELEZ SARSFIELD 850 Y TOLL, CAPITAL FEDERAL",TOLL,,VELEZ SARSFIELD AV.,Barracas,Comuna 4
-58.40766766413761,-34.6516818095335,57,YPF,GNC POMPEYA SRL,30-62798060-0,GNC,"AVENIDA AMANCIO ALCORTA 3415 Y PEPIRI, CAPITAL FEDERAL","ALCORTA, AMANCIO AV.",,PEPIRI,Nueva Pompeya,Comuna 4
-58.500731579202785,-34.6502313188746,56,YPF,ALBERDI GAS SA,30-64432049-5,DUAL,"AVENIDA ALBERDI ENTRE POLA Y FONROUGE, CAPITAL FEDERAL","ALBERDI, JUAN BAUTISTA AV.",,POLA,Mataderos,Comuna 9
-58.4878409725463,-34.6415011831633,55,YPF,SOLMAY SRL,30-70207150-6,LIQUIDOS,"AVENIDA ALBERDI 4402 Y MEDINA, CAPITAL FEDERAL","ALBERDI, JUAN BAUTISTA AV.",,MEDINA,Parque Avellaneda,Comuna 9
-58.430378324481495,-34.6101907511971,54,YPF,RIO DE JANEIRO SA,30-53845687-6,LIQUIDOS,"RIO DE JANEIRO 464 Y ESCRIBANO, CAPITAL FEDERAL",ESCRIBANO,,RIO DE JANEIRO,Caballito,Comuna 6
-58.4898908410705,-34.6112904838341,53,YPF,JONTE 3386 SRL,33-65333525-9,LIQUIDOS,"AVENIDA ANTONIO ALVAREZ JONTE 3386 Y LLAVALLOL, CAPITAL FEDERAL",ALVAREZ JONTE AV.,,LLAVALLOL,Villa Santa Rita,Comuna 11
-58.49096127770989,-34.6655317165441,52,YPF,DESTINATUM S.A.,30-71213502-2,LIQUIDOS,"AVENIDA EVA PERON 6102 Y MURGUIONDO, CAPITAL FEDERAL","PERON, EVA AV.",,MURGUIONDO,Villa Lugano,Comuna 8
-58.4233182659072,-34.6435315467054,51,YPF,POMPEYA GAS SA,30-64483733-1,GNC,"AVENIDA FERNANDEZ DE LA CRUZ Y FOURNIER, CAPITAL FEDERAL","FERNANDEZ DE LA CRUZ, F., GRAL. AV.",,FOURNIER,Nueva Pompeya,Comuna 4
-58.4795700682695,-34.5643294647407,50,YPF,LE BRETON SRL,30-65721366-3,LIQUIDOS,"CONGRESO 4008 Y PLAZA, CAPITAL FEDERAL","LE BRETON, TOMAS A.",,PLAZA,Villa Urquiza,Comuna 12
-58.507611846930104,-34.647131214123,49,YPF,GOMEZ DE MARTINEZ S Y/U OTRAS,30-55714439-7,LIQUIDOS,"AVENIDA CORONEL M LARRAZABAL 801 Y SCHMIDL, CAPITAL FEDERAL",LARRAZABAL AV.,,"SCHMIDL, ULRICO",Liniers,Comuna 9
-58.40383726642629,-34.618711075503995,48,YPF,INCAT SRL,30-51580021-9,DUAL,"AVENIDA INDEPENDENCIA 2701 Y JUJUY, CAPITAL FEDERAL",INDEPENDENCIA AV.,,JUJUY AV.,Balvanera,Comuna 3
-58.5171723583987,-34.6620915084822,47,YPF,LA ROTONDA SH,33-70744629-9,DUAL,"AVENIDA ALBERDI 7500 Y GENERAL PAZ, CAPITAL FEDERAL","ALBERDI, JUAN BAUTISTA AV.",,"PAZ, GRAL. AV.",Mataderos,Comuna 9
-58.4726501339458,-34.614010630746996,46,YPF,PROODOS SA,30-51870762-7,LIQUIDOS,"AVENIDA DR JUAN BAUTISTA JUSTO 5315 Y BELAUSTEGUI, CAPITAL FEDERAL","ARTIGAS, JOSE GERVASIO, GRAL.",,"BELAUSTEGUI, LUIS, DR.",Villa Gral. Mitre,Comuna 11
-58.375296172107106,-34.634021564406,45,YPF,ACA BARRACAS,30-50014329-7,LIQUIDOS,"AVENIDA MANUEL AUGUSTO MONTES DE OCA 492 Y AVENIDA MARTIN GARCIA, CAPITAL FEDERAL","GARCIA, MARTIN AV.",,"MONTES DE OCA, MANUEL AV.",Barracas,Comuna 4
-58.4468490035503,-34.6080606218401,44,YPF,OPESSA ACA CABALLITO,30-67877449-5,LIQUIDOS,"AVENIDA GAONA 1204 Y MARTIN DE GAINZA, CAPITAL FEDERAL","GAINZA, MARTIN DE, GRAL.",,GAONA AV.,Caballito,Comuna 6
-58.470946604420796,-34.5503091880363,43,YPF,AMBAS SA,30-64452904-1,GNC,"AVENIDA CRISOLOGO LARRALDE Y MOLDES, CAPITAL FEDERAL",MOLDES,,"LARRALDE, CRISOLOGO AV.",Saavedra,Comuna 12
-58.406037397640894,-34.62408118729,42,YPF,PETROLFE SA,30-69613100-3,LIQUIDOS,"AVENIDA SAN JUAN 2901 Y DEAN FUNES, CAPITAL FEDERAL",DEAN FUNES,,SAN JUAN AV.,San Cristobal,Comuna 3
-58.4665597769621,-34.600070342853996,41,YPF,NUESTRO SOSIEGO SA,30-57223430-0,LIQUIDOS,"AVENIDA TTE GRAL DONATO ALVAREZ 2290 Y MANUEL RICARDO TRELLES, CAPITAL FEDERAL",CUCHA CUCHA,,"TRELLES, MANUEL R. AV.",Paternal,Comuna 15
-58.5096917823078,-34.6260607230232,40,YPF,MAURER & GRUMELLI SRL,30-60131698-2,LIQUIDOS,"AVENIDA LOPE DE VEGA 1502 Y MIRANDA, CAPITAL FEDERAL",LOPE DE VEGA AV.,,MIRANDA,Villa Luro,Comuna 10
-58.4373781991578,-34.5514993797378,39,YPF,OPESSA ECHEVERRIA,30-67877449-5,LIQUIDOS,"AVENIDA FIGUEROA ALCORTA 6608 Y ECHEVERRIA, CAPITAL FEDERAL",ECHEVERRIA,,"FIGUEROA ALCORTA, PRES. AV.",Belgrano,Comuna 13
-58.50692127225822,-34.571549494450196,38,YPF,OPESSA WALL MART CONSTITUYENTES,30-67877449-5,LIQUIDOS,"AVENIDA DE LOS CONSTITUYENTES 6070, CAPITAL FEDERAL",DE LOS CONSTITUYENTES AV.,6070.0,PIRAN,Villa Pueyrredon,Comuna 12
-58.454079262939,-34.6017404422408,37,YPF,UBR SA,30-70791830-2,LIQUIDOS,"AVENIDA JUAN B JUSTO 3508 Y GENERAL MARTIN RODRIGUEZ, CAPITAL FEDERAL","JUSTO, JUAN B. AV.",,"RODRIGUEZ, MANUEL A., GENERAL",Villa Crespo,Comuna 15
-58.4602993889334,-34.5827799795957,36,YPF,BOYACA CISA,30-53738787-0,LIQUIDOS,"AVENIDA SEBASTIAN ELCANO 4000 Y FRAGA, CAPITAL FEDERAL",ELCANO AV.,,FRAGA,Chacarita,Comuna 15
-58.478420802711106,-34.6730119493165,34,YPF,NAFPUR XXI SA,30-70798373-2,LIQUIDOS,"ARGENTINA 5620 Y ZELARRAYAN, CAPITAL FEDERAL",OLIDEN,,ZELARRAYAN,Villa Lugano,Comuna 8
-58.5301925890779,-34.618130440854394,33,YPF,OPESSA BEIRO,30-67877449-5,LIQUIDOS,"AVENIDA FRANCISCO BEIRO 5804 Y AV. GRAL. PAZ, CAPITAL FEDERAL","BEIRO, FRANCISCO AV.",,"PAZ, GRAL. AV.",Villa Real,Comuna 10
-58.4490691515069,-34.6156307835945,32,YPF,UNENS SRL,33-68843627-9,LIQUIDOS,"GERVASIO ESPINOSA 605 Y NEUQUEN, CAPITAL FEDERAL",ESPINOSA,,NEUQUEN,Caballito,Comuna 6
-58.4993308029325,-34.5507590586932,31,YPF,GASPARQUE SA,30-65029699-7,DUAL,"AVENIDA DR RICARDO BALBIN 5041 Y SALTO, CAPITAL FEDERAL","PAZ, GRAL. AV.",,SALTO,Saavedra,Comuna 12
-58.3999968484855,-34.5828902774329,30,YPF,ACA CENTRAL,30-50014329-7,LIQUIDOS,"AVENIDA DEL LIBERTADOR 1850 Y PEREYRA LUCENA, CAPITAL FEDERAL",DEL LIBERTADOR AV.,,PEREYRA LUCENA,Palermo,Comuna 14
-58.478080497941,-34.6327610317735,29,YPF,RIVAGAS SA,30-64463434-1,DUAL,"AVENIDA BERNARDINO RIVADAVIA Y SAN NICOLAS, CAPITAL FEDERAL",BARADERO,,RIVADAVIA AV.,Floresta,Comuna 10
-58.46858055512378,-34.6962225285076,35,YPF,RED PETROL SA,30-63662269-5,DUAL,"AVENIDA CNEL JOSE SEGUNDO ROCA 6797 Y J L SUAREZ, CAPITAL FEDERAL","ROCA, CNEL. AV.",,"SUAREZ, JOSE LEON",Villa Riachuelo,Comuna 8
-58.403357320906,-34.6291513161233,24,YPF,HUACALERA SRL,30-55585497-4,LIQUIDOS,"AVENIDA JUAN DE GARAY 2780 Y ESTEBAN DE LUCA, CAPITAL FEDERAL","GARAY, JUAN DE AV.",,"LUCA, ESTEBAN DE",Parque Patricios,Comuna 4
-58.3724557159926,-34.5868705025074,22,YPF,OPESSA RETIRO TERMINAL,30-67877449-5,DUAL,"AVENIDA ANTARTIDA ARGENTINA Y CALLE 10, CAPITAL FEDERAL",ANTARTIDA ARGENTINA AV.,,DE LOS INMIGRANTES AV.,Retiro,Comuna 1
-58.4271983037033,-34.6259911272608,12,YPF,PROINCO SACI,30-53885193-7,LIQUIDOS,"AVENIDA LA PLATA 901 Y J BONIFACIO, CAPITAL FEDERAL","BIDEGAIN, PEDRO",,LA PLATA AV.,Caballito,Comuna 6
-58.3781851749791,-34.617358169930895,8,YPF,GASYDIN,30-62894966-9,GNC,"AVENIDA INDEPENDENCIA 853 Y TACUARI, CAPITAL FEDERAL",INDEPENDENCIA AV.,,TACUARI,Monserrat,Comuna 1
-58.4004571494992,-34.622291173729,28,YPF,KUANTOKI SA,30-64798389-4,GNC,"ALBERTI 1108, CAPITAL FEDERAL",ALBERTI,1108.0,HUMBERTO 1\u00b0,San Cristobal,Comuna 3
-58.478650700428496,-34.657501593811396,27,YPF,SERVIFE SRL,30-55522058-4,DUAL,"AVENIDA EVA PERON 4899 Y OLIVERA, CAPITAL FEDERAL","PERON, EVA AV.",,OLIVERA AV.,Parque Avellaneda,Comuna 9
-58.450319672812704,-34.6807522646204,26,YPF,OPESSA ACA AUTODROMO,30-67877449-5,DUAL,"AVENIDA CNEL. JOSE SEGUNDO ROCA 4550 Y ESCALADA, CAPITAL FEDERAL",ESCALADA AV.,,"ROCA, CNEL. AV.",Villa Riachuelo,Comuna 8
-58.4930908746813,-34.597240147785804,25,YPF,PANAMERICANA SRL,30-53711555-2,LIQUIDOS,"AVENIDA SAN MARTIN 5316 Y SIMBRON, CAPITAL FEDERAL",NAZCA AV.,,SAN MARTIN AV.,Villa Del Parque,Comuna 11
-58.503101317851296,-34.600200165901896,23,YPF,ACA VILLA DEVOTO,30-50014329-7,LIQUIDOS,"AVENIDA FRANCISCO BEIRO 3561 Y LINCOLN, CAPITAL FEDERAL","BEIRO, FRANCISCO AV.",,LINCOLN AV.,Villa Devoto,Comuna 11
-58.47087957025022,-34.5459390889397,21,YPF,OPESSA CABILDO,30-67877449-5,LIQUIDOS,"AVENIDA CABILDO 4108 Y VILELA, CAPITAL FEDERAL",SAN ISIDRO LABRADOR AV.,,VILELA,Saavedra,Comuna 12
-58.4503388545137,-34.5667796640627,20,YPF,ACA BELGRANO,30-50014329-7,LIQUIDOS,"AVENIDA CABILDO 1499 Y VIRREY ARREDONDO, CAPITAL FEDERAL","ARREDONDO, VIRREY",,CABILDO AV.,Belgrano,Comuna 13
-58.5125916512183,-34.5909799089923,18,YPF,SUCESORES DE LOPEZ ALDAO Y CIA SRL,30-53764870-4,LIQUIDOS,"AVENIDA SAN MARTIN 7001 Y EMILIO LAMARCA, CAPITAL FEDERAL","LOPEZ, CARLOS ANTONIO",,SAN MARTIN AV.,Villa Devoto,Comuna 11
-58.4631298797703,-34.634461144151395,17,YPF,PAGANO JORGE JUAN Y ARTURO ALFREDO SH,30-53833062-7,LIQUIDOS,"AVENIDA DIRECTORIO 2578 Y VARELA, CAPITAL FEDERAL",DIRECTORIO AV.,,VARELA,Flores,Comuna 7
-58.4404387160328,-34.6056505983338,16,YPF,SERVIGAS SA,30-64197896-1,DUAL,"AVENIDA ANGEL GALLARDO Y ACOYTE, CAPITAL FEDERAL",ACOYTE,,"GALLARDO, ANGEL AV.",Villa Crespo,Comuna 15
-58.4962813457214,-34.6438911960932,15,YPF,SERVICIO ESCALADA SRL,30-57104861-9,DUAL,"GRAL M DE ESCALADA 678 Y J B ALBERDI, CAPITAL FEDERAL",ARTIGAS MANUEL DE,,ESCALADA AV.,Villa Luro,Comuna 10
-58.482110801044996,-34.6512214333317,14,YPF,GARAGE Y ESTACION DE SERVICIO EL PROGRESO SA,30-62155959-8,LIQUIDOS,"AVENIDA DOMINGO OLIVERA 1136 Y WHITE, CAPITAL FEDERAL",OLIVERA AV.,,WHITE,Parque Avellaneda,Comuna 9
-58.4849208758929,-34.645171281340104,13,YPF,OPESSA OLIVERA,30-67877449-5,DUAL,"AVENIDA DIRECTORIO 4311 Y OLIVERA, CAPITAL FEDERAL","AMEGHINO, FLORENTINO, DR.",,OLIVERA AV.,Parque Avellaneda,Comuna 9
-58.42131768482661,-34.5741899749824,11,YPF,ACA PALERMO,30-50014329-7,LIQUIDOS,"GODOY CRUZ 3111 Y DEMARIA, CAPITAL FEDERAL",DEMARIA,,GODOY CRUZ,Palermo,Comuna 14
-58.4668594312914,-34.5501692049205,10,YPF,OPESSA AZURDUY,30-67877449-5,LIQUIDOS,"AVENIDA CABILDO 3501 Y JUANA AZURDUY, CAPITAL FEDERAL",AZURDUY JUANA,,CABILDO AV.,Nu\u00f1ez,Comuna 13
-58.4802801648004,-34.573599672308504,9,YPF,OPESSA OLAZABAL,30-67877449-5,LIQUIDOS,"AVENIDA ALVAREZ THOMAS Y OLAZABAL, CAPITAL FEDERAL",ALVAREZ THOMAS AV.,,OLAZABAL AV.,Villa Urquiza,Comuna 12
-58.4446787455616,-34.584850103414695,7,YPF,OPESSA DORREGO,30-67877449-5,LIQUIDOS,"AVENIDA CORDOBA 5984 Y DORREGO, CAPITAL FEDERAL",AREVALO,,CORDOBA AV.,Chacarita,Comuna 15
-58.4888904296365,-34.5599893201108,6,YPF,ESTACION DE SERVICIO SAAVEDRA SRL,30-55974293-3,LIQUIDOS,"CRISOLOGO LARRALDE 4688 Y LUGONES, CAPITAL FEDERAL",LUGONES,,"LARRALDE, CRISOLOGO AV.",Saavedra,Comuna 12
-58.454259407049,-34.6207408746745,5,YPF,OPESSA SEGUI,30-67877449-5,DUAL,"AVENIDA AVELLANEDA 1628 Y SEGUI, CAPITAL FEDERAL",AVELLANEDA AV.,,"SEGUI, F. J., ALTE.",Caballito,Comuna 6
-58.429028255449495,-34.6085007192682,4,YPF,OPESSA YATAY,30-67877449-5,DUAL,"AVENIDA DIAZ VELEZ 4373 Y YATAY, CAPITAL FEDERAL",DIAZ VELEZ AV.,,YATAY,Almagro,Comuna 5
-58.4782301524144,-34.5838899167589,3,YPF,ESTACION DE SERVICIO AVALOS SA,30-54171558-0,LIQUIDOS,"AVENIDA DE LOS INCAS 4801 Y AVALOS, CAPITAL FEDERAL",AVALOS,,DE LOS INCAS AV.,Parque Chas,Comuna 15
-58.47167976521551,-34.5684095964115,2,YPF,SERVICE NAON SRL,30-57258575-8,LIQUIDOS,"AVENIDA FELIX DE OLAZABAL 3690 Y ROMULO NAON, CAPITAL FEDERAL","NAON, ROMULO",,OLAZABAL AV.,Belgrano,Comuna 13
-58.434578592529604,-34.6228710198772,1,YPF,DIGON SA,30-64198424-4,GNC,"AVENIDA JOSE M MORENO Y AVDA JUAN B ALBERDI, CAPITAL FEDERAL","ALBERDI, JUAN BAUTISTA AV.",,"MORENO, JOSE MARIA AV.",Caballito,Comuna 6
-58.4813210524964,-34.6906423380627,496,YPF,CHILAVERT 1990 SRL,30-59476092-8,DUAL,"CHILAVERT Y GRAL PAZ, VILLA CELINA","CHILAVERT, MARTINIANO, CORONEL",,"PAZ, GRAL. AV.",,
